{
	"tiks": [
		{
			"lon": 35.3371608,
			"lat": 59.1661326,
			"desc": "ул. Стекольщиков, 3",
			"phone": "(81741) 2-11-75",
			"url": "http://www.vologod.vybory.izbirkom.ru/region/vologod?action=show_komissia&region=35&sub_region=35&type=100&vrnorg=235200070674&vrnkomis=435402621829",
			"name": "Чагодещенского муниципального района"
		}
	],
	"uiks": [
		{
			"lon": 35.3391,
			"lat": 59.1673,
			"obj": "",
			"addr": "ул. Кирова, 7",
			"phone": "",
			"number": 851
		},
		{
			"lon": 35.3389070,
			"lat": 59.1673479,
			"obj": "",
			"addr": "ул. Кирова, 5А",
			"phone": "",
			"number": 852
		},
		{
			"lon": 35.3379629,
			"lat": 59.1674359,
			"obj": "",
			"addr": "ул. Кирова, 5",
			"phone": "",
			"number": 853
		},
		{
			"lon": 35.3287274,
			"lat": 59.1691511,
			"obj": "",
			"addr": "ул. Школьная, 15А",
			"phone": "",
			"number": 854
		},
		{
			"lon": 35.3294326,
			"lat": 59.1690298,
			"obj": "",
			"addr": "ул. Школьная, 15А",
			"phone": "",
			"number": 855
		},
		{
			"lon": 35.304289,
			"lat": 59.158521,
			"obj": "",
			"addr": "ул. Центральная, 9",
			"phone": "",
			"number": 856
		},
		{
			"lon": 35.3515948,
			"lat": 59.1698382,
			"obj": "",
			"addr": "ул. Воззвания, 21А",
			"phone": "",
			"number": 857
		},
		{
			"lon": 35.3293704,
			"lat": 59.1638316,
			"obj": "",
			"addr": "ул. Высоцкого, 73",
			"phone": "",
			"number": 858
		}
	]
}
